{"rating":5.0000,"score_prairie":0.0000,"posts_url":"/api/object/80/posts","activity_duration":17228,"score_bays":0.0000,"score_canyons":0.2500,"rating_positives":0.8333333333333333333333333333,"score_cactus":0.2500,"rating_rewards":0.8333333333333333333333333333,"score_mesas":0.0000,"difficulty_scores":[{"score":2.7611290066014478,"value":17390,"key":"activity_distance","label":"distance"},{"score":2.0,"value":17228,"key":"activity_duration","label":"duration"},{"score":1.8996063021,"value":579.00,"key":"cumulative_elevation","label":"ascent"},{"score":0.9530347783515001,"value":1742.91,"key":"maximum_elevation","label":"altitude"},{"score":1.25,"value":0.7500,"key":"intensity","label":"intensity"},{"score":1.6666666666666667,"value":0.5000,"key":"surface","label":"surface"},{"score":1.25,"value":0.7500,"key":"technical","label":"technical"},{"score":0.0,"value":1.0000,"key":"navigation","label":"navigation"},{"score":1.25,"value":0.2500,"key":"score_exposure","label":"vertical"}],"score_biting_insects":0.0000,"score_snow":0.0000,"highlights":"Sage and coral sand meadow, banded sandstone spires, colorful desert scenery, dramatic narrows","rating_difficulty":0.5149364564679381909968881997,"parent_id":78,"bottom_latitude":38.10168982,"parents":[{"object_type":"Region","id":2143,"levels":4,"name":"USA"},{"object_type":"Region","id":63,"levels":3,"name":"Moab"},{"object_type":"Region","id":74,"levels":2,"name":"Canyonlands"},{"object_type":"Region","id":78,"levels":1,"name":"Needles"}],"score_conifer":0.0000,"score_storms":0.0000,"parent_url":"/api/object/78","score_disease":0.0000,"media_url":"/api/object/80/media","utc_offset":-21600,"views":"0.5","start_time":"2010-10-12 14:52:39","rating_features":0.8333333333333333333333333333,"rating_risks":0.5000,"score_flowers":0.0000,"name":"Chesler Park","score_limited_visibility":0.0000,"feature_scores":[{"score":0.727,"name":"narrows","label":"narrows/slot canyons"},{"score":-0.025999999999999995,"name":"arches","label":"arches/bridges"},{"score":0.721,"name":"spires","label":"spires/hoodoos"},{"score":-0.032,"name":"tunnels","label":"tunnels/caves"},{"score":-0.035,"name":"summits","label":"summits"},{"score":-0.038000000000000006,"name":"ridges","label":"ridges"},{"score":0.209,"name":"rims","label":"canyon rims"},{"score":0.206,"name":"slickrock","label":"slickrock"},{"score":0.20299999999999999,"name":"cliffs","label":"cliffs"},{"score":-0.05000000000000002,"name":"volcanoes","label":"volcanoes"},{"score":-0.05300000000000002,"name":"mesas","label":"mesas"},{"score":0.19399999999999998,"name":"canyons","label":"canyons"},{"score":0.941,"name":"geology","label":"colorful geology"},{"score":-0.06200000000000003,"name":"lava","label":"lava"},{"score":-0.06500000000000003,"name":"dunes","label":"sand dunes"},{"score":-0.06800000000000003,"name":"mammals","label":"mammals"},{"score":0.17899999999999996,"name":"birds","label":"birds"},{"score":0.17599999999999996,"name":"reptiles","label":"reptiles"},{"score":-0.07700000000000004,"name":"amphibians","label":"amphibians"},{"score":-0.08000000000000004,"name":"fish","label":"fish"},{"score":-0.08300000000000005,"name":"invertebrates","label":"invertebrates"},{"score":-0.08600000000000005,"name":"glaciers","label":"glaciers"},{"score":-0.08900000000000005,"name":"rivers","label":"rivers"},{"score":-0.09200000000000005,"name":"rapids","label":"rapids"},{"score":-0.09500000000000004,"name":"waterfalls","label":"waterfalls"},{"score":-0.09800000000000005,"name":"lakes","label":"lakes/ponds"},{"score":-0.10100000000000005,"name":"oceans","label":"oceans/seas"},{"score":-0.10400000000000004,"name":"geysers","label":"geysers"},{"score":-0.10700000000000004,"name":"fjords","label":"fjords"},{"score":-0.11000000000000004,"name":"bays","label":"bays/sounds"},{"score":-0.11300000000000004,"name":"marshes","label":"marshes/wetlands"},{"score":-0.11600000000000005,"name":"tide pools","label":"tide pools"},{"score":-0.11900000000000004,"name":"beaches","label":"beaches"},{"score":-0.12200000000000004,"name":"reefs","label":"reefs"},{"score":-0.12500000000000006,"name":"islands","label":"islands"},{"score":-0.12800000000000003,"name":"jungle","label":"jungle"},{"score":-0.13100000000000003,"name":"conifer","label":"conifer trees"},{"score":-0.13400000000000004,"name":"deciduous","label":"deciduous trees"},{"score":-0.13700000000000004,"name":"flowers","label":"flowers"},{"score":-0.14000000000000004,"name":"meadows","label":"meadows/prairie"},{"score":0.357,"name":"scrub","label":"desert scrub"},{"score":0.10399999999999995,"name":"cactus","label":"cactus"},{"score":-0.14900000000000005,"name":"palms","label":"palm trees"}],"score_birds":0.2500,"score_heat":0.7500,"score_summits":0.0000,"level":5,"notes":null,"summary":null,"score_sand":0.2500,"end_time":"2010-10-12 19:44:35","score_palm":0.0000,"rating_obstacles":0.3333333333333333333333333333,"score_tide_pools":0.0000,"permission_read":null,"places_url":"/api/object/80/places","intensity":0.7500,"unicode_region":"US","score_marshes":0.0000,"score_mammals":0.0000,"sport":"Hike","score_spires":0.7500,"score_narrows":0.7500,"permission_update":null,"score":1.0000,"score_annoying_insects":0.0000,"risks":[{"score":0.7500,"name":"heat"},{"score":0.5000,"name":"UV exposure"},{"score":0.2500,"name":"vertical exposure"},{"score":0.2500,"name":"falling_objects"},{"score":0.0000,"name":"cold"},{"score":0.0000,"name":"storms"},{"score":0.0000,"name":"dangerous water"},{"score":0.0000,"name":"volcanic_activity"},{"score":0.0000,"name":"limited_visibility"},{"score":0.0000,"name":"dangerous_animals"},{"score":0.0000,"name":"disease"}],"score_fjords":0.0000,"deleted":null,"score_dunes":0.0000,"difficulty":2.7611290066014478,"score_reptiles":0.2500,"score_dangerous_animals":0.0000,"approval":null,"score_jungle":0.0000,"earliest":"April","score_cliffs":0.2500,"score_geysers":0.0000,"media_sequence_mode":"Time","score_rivers":0.0000,"points_summary":[{"cumulative_gain":0,"elevation":1561,"cumulative_distance":0,"cumulative_time":3,"cumulative_loss":0,"longitude":-109.82734,"latitude":38.14151},{"cumulative_gain":50,"elevation":1603,"cumulative_distance":681,"cumulative_time":840,"cumulative_loss":11,"longitude":-109.82939,"latitude":38.13628},{"cumulative_gain":73,"elevation":1624,"cumulative_distance":1054,"cumulative_time":1280,"cumulative_loss":13,"longitude":-109.8298,"latitude":38.13323},{"cumulative_gain":73,"elevation":1619,"cumulative_distance":1169,"cumulative_time":1370,"cumulative_loss":19,"longitude":-109.8292,"latitude":38.13244},{"cumulative_gain":74,"elevation":1621,"cumulative_distance":1300,"cumulative_time":1481,"cumulative_loss":19,"longitude":-109.82965,"latitude":38.13137},{"cumulative_gain":86,"elevation":1631,"cumulative_distance":1503,"cumulative_time":1714,"cumulative_loss":19,"longitude":-109.82886,"latitude":38.12982},{"cumulative_gain":95,"elevation":1625,"cumulative_distance":1791,"cumulative_time":1987,"cumulative_loss":34,"longitude":-109.83098,"latitude":38.12798},{"cumulative_gain":109,"elevation":1641,"cumulative_distance":2148,"cumulative_time":2358,"cumulative_loss":34,"longitude":-109.83271,"latitude":38.12519},{"cumulative_gain":121,"elevation":1645,"cumulative_distance":2288,"cumulative_time":2538,"cumulative_loss":37,"longitude":-109.83396,"latitude":38.12466},{"cumulative_gain":122,"elevation":1632,"cumulative_distance":2541,"cumulative_time":2727,"cumulative_loss":53,"longitude":-109.83639,"latitude":38.12565},{"cumulative_gain":125,"elevation":1637,"cumulative_distance":2616,"cumulative_time":2807,"cumulative_loss":53,"longitude":-109.83722,"latitude":38.12555},{"cumulative_gain":128,"elevation":1638,"cumulative_distance":2697,"cumulative_time":2893,"cumulative_loss":53,"longitude":-109.8376,"latitude":38.12513},{"cumulative_gain":128,"elevation":1642,"cumulative_distance":2718,"cumulative_time":2909,"cumulative_loss":53,"longitude":-109.83754,"latitude":38.12495},{"cumulative_gain":128,"elevation":1623,"cumulative_distance":2941,"cumulative_time":3075,"cumulative_loss":71,"longitude":-109.8386,"latitude":38.12369},{"cumulative_gain":128,"elevation":1603,"cumulative_distance":3117,"cumulative_time":3206,"cumulative_loss":86,"longitude":-109.83948,"latitude":38.12398},{"cumulative_gain":128,"elevation":1588,"cumulative_distance":3206,"cumulative_time":3281,"cumulative_loss":103,"longitude":-109.83999,"latitude":38.12348},{"cumulative_gain":133,"elevation":1595,"cumulative_distance":3273,"cumulative_time":3360,"cumulative_loss":104,"longitude":-109.84065,"latitude":38.12362},{"cumulative_gain":169,"elevation":1630,"cumulative_distance":3546,"cumulative_time":3797,"cumulative_loss":104,"longitude":-109.84274,"latitude":38.12225},{"cumulative_gain":180,"elevation":1645,"cumulative_distance":3653,"cumulative_time":3949,"cumulative_loss":104,"longitude":-109.84296,"latitude":38.12287},{"cumulative_gain":184,"elevation":1644,"cumulative_distance":3700,"cumulative_time":4007,"cumulative_loss":104,"longitude":-109.84339,"latitude":38.12267},{"cumulative_gain":196,"elevation":1657,"cumulative_distance":3829,"cumulative_time":4186,"cumulative_loss":104,"longitude":-109.84474,"latitude":38.12248},{"cumulative_gain":215,"elevation":1677,"cumulative_distance":4124,"cumulative_time":4533,"cumulative_loss":104,"longitude":-109.84704,"latitude":38.12078},{"cumulative_gain":219,"elevation":1676,"cumulative_distance":4201,"cumulative_time":4618,"cumulative_loss":104,"longitude":-109.84791,"latitude":38.12082},{"cumulative_gain":259,"elevation":1717,"cumulative_distance":4416,"cumulative_time":5029,"cumulative_loss":105,"longitude":-109.84924,"latitude":38.11955},{"cumulative_gain":259,"elevation":1708,"cumulative_distance":4547,"cumulative_time":5130,"cumulative_loss":114,"longitude":-109.84986,"latitude":38.1185},{"cumulative_gain":259,"elevation":1706,"cumulative_distance":4599,"cumulative_time":5172,"cumulative_loss":117,"longitude":-109.84982,"latitude":38.11804},{"cumulative_gain":259,"elevation":1706,"cumulative_distance":4600,"cumulative_time":5173,"cumulative_loss":118,"longitude":-109.84982,"latitude":38.11804},{"cumulative_gain":267,"elevation":1714,"cumulative_distance":4770,"cumulative_time":5361,"cumulative_loss":118,"longitude":-109.84961,"latitude":38.11669},{"cumulative_gain":277,"elevation":1720,"cumulative_distance":5147,"cumulative_time":5722,"cumulative_loss":122,"longitude":-109.84725,"latitude":38.11408},{"cumulative_gain":291,"elevation":1731,"cumulative_distance":5394,"cumulative_time":5998,"cumulative_loss":128,"longitude":-109.84491,"latitude":38.11334},{"cumulative_gain":291,"elevation":1724,"cumulative_distance":5491,"cumulative_time":6076,"cumulative_loss":133,"longitude":-109.84568,"latitude":38.11279},{"cumulative_gain":291,"elevation":1716,"cumulative_distance":5956,"cumulative_time":6449,"cumulative_loss":140,"longitude":-109.84751,"latitude":38.10891},{"cumulative_gain":294,"elevation":1719,"cumulative_distance":6353,"cumulative_time":6786,"cumulative_loss":142,"longitude":-109.84991,"latitude":38.10599},{"cumulative_gain":302,"elevation":1719,"cumulative_distance":6714,"cumulative_time":7121,"cumulative_loss":149,"longitude":-109.85277,"latitude":38.10377},{"cumulative_gain":308,"elevation":1727,"cumulative_distance":6926,"cumulative_time":7329,"cumulative_loss":149,"longitude":-109.85386,"latitude":38.10212},{"cumulative_gain":308,"elevation":1718,"cumulative_distance":7106,"cumulative_time":7470,"cumulative_loss":155,"longitude":-109.85414,"latitude":38.10335},{"cumulative_gain":308,"elevation":1698,"cumulative_distance":7420,"cumulative_time":7716,"cumulative_loss":175,"longitude":-109.85684,"latitude":38.10484},{"cumulative_gain":308,"elevation":1696,"cumulative_distance":7523,"cumulative_time":7798,"cumulative_loss":178,"longitude":-109.85764,"latitude":38.10453},{"cumulative_gain":308,"elevation":1696,"cumulative_distance":7526,"cumulative_time":7800,"cumulative_loss":178,"longitude":-109.85766,"latitude":38.10455},{"cumulative_gain":308,"elevation":1696,"cumulative_distance":7546,"cumulative_time":7817,"cumulative_loss":178,"longitude":-109.85773,"latitude":38.10465},{"cumulative_gain":312,"elevation":1701,"cumulative_distance":7908,"cumulative_time":8125,"cumulative_loss":184,"longitude":-109.8594,"latitude":38.10169},{"cumulative_gain":312,"elevation":1682,"cumulative_distance":7964,"cumulative_time":8176,"cumulative_loss":193,"longitude":-109.85986,"latitude":38.10203},{"cumulative_gain":312,"elevation":1679,"cumulative_distance":7968,"cumulative_time":8182,"cumulative_loss":194,"longitude":-109.85989,"latitude":38.10206},{"cumulative_gain":312,"elevation":1661,"cumulative_distance":8128,"cumulative_time":8322,"cumulative_loss":216,"longitude":-109.86134,"latitude":38.10237},{"cumulative_gain":315,"elevation":1646,"cumulative_distance":8425,"cumulative_time":8570,"cumulative_loss":233,"longitude":-109.86294,"latitude":38.10457},{"cumulative_gain":317,"elevation":1648,"cumulative_distance":8488,"cumulative_time":8632,"cumulative_loss":233,"longitude":-109.86358,"latitude":38.10466},{"cumulative_gain":317,"elevation":1621,"cumulative_distance":8719,"cumulative_time":8796,"cumulative_loss":261,"longitude":-109.86479,"latitude":38.10303},{"cumulative_gain":317,"elevation":1620,"cumulative_distance":8890,"cumulative_time":8934,"cumulative_loss":262,"longitude":-109.86646,"latitude":38.10363},{"cumulative_gain":319,"elevation":1621,"cumulative_distance":9150,"cumulative_time":9150,"cumulative_loss":263,"longitude":-109.86833,"latitude":38.10462},{"cumulative_gain":319,"elevation":1618,"cumulative_distance":9322,"cumulative_time":9290,"cumulative_loss":265,"longitude":-109.8689,"latitude":38.10592},{"cumulative_gain":320,"elevation":1619,"cumulative_distance":9415,"cumulative_time":9367,"cumulative_loss":265,"longitude":-109.86983,"latitude":38.10621},{"cumulative_gain":320,"elevation":1610,"cumulative_distance":9719,"cumulative_time":9611,"cumulative_loss":275,"longitude":-109.87148,"latitude":38.10855},{"cumulative_gain":320,"elevation":1600,"cumulative_distance":10068,"cumulative_time":9890,"cumulative_loss":283,"longitude":-109.86967,"latitude":38.11104},{"cumulative_gain":327,"elevation":1609,"cumulative_distance":10305,"cumulative_time":10125,"cumulative_loss":283,"longitude":-109.8683,"latitude":38.11277},{"cumulative_gain":377,"elevation":1658,"cumulative_distance":10860,"cumulative_time":10867,"cumulative_loss":283,"longitude":-109.86718,"latitude":38.11689},{"cumulative_gain":379,"elevation":1659,"cumulative_distance":10973,"cumulative_time":10971,"cumulative_loss":285,"longitude":-109.8661,"latitude":38.11683},{"cumulative_gain":379,"elevation":1645,"cumulative_distance":11186,"cumulative_time":11137,"cumulative_loss":299,"longitude":-109.86471,"latitude":38.11547},{"cumulative_gain":406,"elevation":1672,"cumulative_distance":11384,"cumulative_time":11454,"cumulative_loss":299,"longitude":-109.86385,"latitude":38.11659},{"cumulative_gain":412,"elevation":1678,"cumulative_distance":11443,"cumulative_time":11541,"cumulative_loss":299,"longitude":-109.86334,"latitude":38.11692},{"cumulative_gain":426,"elevation":1694,"cumulative_distance":11581,"cumulative_time":11734,"cumulative_loss":299,"longitude":-109.86207,"latitude":38.1176},{"cumulative_gain":428,"elevation":1672,"cumulative_distance":11805,"cumulative_time":11918,"cumulative_loss":320,"longitude":-109.86016,"latitude":38.11664},{"cumulative_gain":438,"elevation":1680,"cumulative_distance":12068,"cumulative_time":12187,"cumulative_loss":324,"longitude":-109.85783,"latitude":38.11779},{"cumulative_gain":441,"elevation":1682,"cumulative_distance":12153,"cumulative_time":12271,"cumulative_loss":325,"longitude":-109.85723,"latitude":38.1174},{"cumulative_gain":442,"elevation":1682,"cumulative_distance":12328,"cumulative_time":12418,"cumulative_loss":325,"longitude":-109.85534,"latitude":38.11772},{"cumulative_gain":448,"elevation":1688,"cumulative_distance":12438,"cumulative_time":12543,"cumulative_loss":325,"longitude":-109.8546,"latitude":38.11704},{"cumulative_gain":456,"elevation":1696,"cumulative_distance":12669,"cumulative_time":12777,"cumulative_loss":325,"longitude":-109.85233,"latitude":38.11784},{"cumulative_gain":464,"elevation":1705,"cumulative_distance":12871,"cumulative_time":12987,"cumulative_loss":325,"longitude":-109.8501,"latitude":38.11793},{"cumulative_gain":465,"elevation":1706,"cumulative_distance":12899,"cumulative_time":13017,"cumulative_loss":325,"longitude":-109.84984,"latitude":38.11805},{"cumulative_gain":477,"elevation":1684,"cumulative_distance":13254,"cumulative_time":13366,"cumulative_loss":355,"longitude":-109.84827,"latitude":38.12052},{"cumulative_gain":477,"elevation":1677,"cumulative_distance":13388,"cumulative_time":13467,"cumulative_loss":366,"longitude":-109.84706,"latitude":38.12079},{"cumulative_gain":477,"elevation":1659,"cumulative_distance":13665,"cumulative_time":13677,"cumulative_loss":383,"longitude":-109.84501,"latitude":38.12243},{"cumulative_gain":477,"elevation":1644,"cumulative_distance":13868,"cumulative_time":13835,"cumulative_loss":400,"longitude":-109.84296,"latitude":38.12285},{"cumulative_gain":477,"elevation":1630,"cumulative_distance":13963,"cumulative_time":13898,"cumulative_loss":412,"longitude":-109.84274,"latitude":38.12227},{"cumulative_gain":489,"elevation":1606,"cumulative_distance":14372,"cumulative_time":14295,"cumulative_loss":451,"longitude":-109.83965,"latitude":38.12397},{"cumulative_gain":509,"elevation":1622,"cumulative_distance":14508,"cumulative_time":14523,"cumulative_loss":451,"longitude":-109.83862,"latitude":38.1237},{"cumulative_gain":524,"elevation":1637,"cumulative_distance":14772,"cumulative_time":14826,"cumulative_loss":452,"longitude":-109.83724,"latitude":38.12554},{"cumulative_gain":524,"elevation":1632,"cumulative_distance":14873,"cumulative_time":14905,"cumulative_loss":455,"longitude":-109.83613,"latitude":38.12556},{"cumulative_gain":539,"elevation":1646,"cumulative_distance":15099,"cumulative_time":15174,"cumulative_loss":455,"longitude":-109.83394,"latitude":38.12466},{"cumulative_gain":543,"elevation":1640,"cumulative_distance":15236,"cumulative_time":15301,"cumulative_loss":468,"longitude":-109.8327,"latitude":38.12523},{"cumulative_gain":543,"elevation":1625,"cumulative_distance":15584,"cumulative_time":15577,"cumulative_loss":482,"longitude":-109.83103,"latitude":38.12793},{"cumulative_gain":557,"elevation":1632,"cumulative_distance":15885,"cumulative_time":15899,"cumulative_loss":491,"longitude":-109.82885,"latitude":38.12991},{"cumulative_gain":566,"elevation":1628,"cumulative_distance":16343,"cumulative_time":16314,"cumulative_loss":502,"longitude":-109.82979,"latitude":38.13335},{"cumulative_gain":567,"elevation":1604,"cumulative_distance":16705,"cumulative_time":16601,"cumulative_loss":528,"longitude":-109.82945,"latitude":38.13632},{"cumulative_gain":579,"elevation":1560,"cumulative_distance":17390,"cumulative_time":17228,"cumulative_loss":583,"longitude":-109.82753,"latitude":38.14161}],"created":"2010-10-12 07:52:39","technical":0.7500,"minimum_elevation":1559.44,"route":"Foothills","score_rapids":0.0000,"media_select_mode":"Manual","dramatic_terrain":"0.75","attributes":null,"navigation":1.0000,"adventure":"0.25","features":[{"score":1.0000,"name":"colorful_geology"},{"score":0.7500,"name":"narrows"},{"score":0.7500,"name":"spires"},{"score":0.5000,"name":"scrub"},{"score":0.2500,"name":"cliffs"},{"score":0.2500,"name":"rims"},{"score":0.2500,"name":"canyons"},{"score":0.2500,"name":"slickrock"},{"score":0.2500,"name":"cactus"},{"score":0.2500,"name":"birds"},{"score":0.2500,"name":"reptiles"},{"score":0.0000,"name":"volcanoes"},{"score":0.0000,"name":"summits"},{"score":0.0000,"name":"ridges"},{"score":0.0000,"name":"mesas"},{"score":0.0000,"name":"tunnels"},{"score":0.0000,"name":"arches"},{"score":0.0000,"name":"lava"},{"score":0.0000,"name":"dunes"},{"score":0.0000,"name":"glaciers"},{"score":0.0000,"name":"rivers"},{"score":0.0000,"name":"rapids"},{"score":0.0000,"name":"waterfalls"},{"score":0.0000,"name":"lakes"},{"score":0.0000,"name":"oceans"},{"score":0.0000,"name":"geysers"},{"score":0.0000,"name":"fjords"},{"score":0.0000,"name":"bays"},{"score":0.0000,"name":"marshes"},{"score":0.0000,"name":"tide_pools"},{"score":0.0000,"name":"beaches"},{"score":0.0000,"name":"reefs"},{"score":0.0000,"name":"islands"},{"score":0.0000,"name":"jungle"},{"score":0.0000,"name":"conifer"},{"score":0.0000,"name":"deciduous"},{"score":0.0000,"name":"flowers"},{"score":0.0000,"name":"prairie"},{"score":0.0000,"name":"palm"},{"score":0.0000,"name":"mammals"},{"score":0.0000,"name":"amphibians"},{"score":0.0000,"name":"fish"},{"score":0.0000,"name":"invertebrates"}],"object_type":"Course","score_cold":0.0000,"score_stinging_insects":0.0000,"score_lava":0.0000,"score_islands":0.0000,"score_reefs":0.0000,"score_rims":0.2500,"score_annoying_animals":0.0000,"permission_post":null,"left_longitude":-109.87148295,"score_ticks":0.0000,"vehicle":"Any vehicle","score_volcanic_activity":0.0000,"origin_latitude":38.14150614,"rewards":[{"score":"1","name":"beauty"},{"score":"0.75","name":"dramatic_terrain"},{"score":"0.75","name":"escape"},{"score":"0.5","name":"views"},{"score":"0.5","name":"accomplishment"},{"score":"0.25","name":"adventure"}],"score_beaches":0.0000,"score_colorful_geology":1.0000,"score_invertebrates":0.0000,"maximum_elevation":1742.91,"score_deciduous":0.0000,"score_fish":0.0000,"score_tunnels":0.0000,"score_crowds":0.2500,"effort":[{"score":0.6886850803350182815785846492,"name":"distance"},{"score":0.6182535775607638843070113996,"name":"duration"},{"score":0.5102753962099396936004008504,"name":"vertical"},{"score":0.4537791976133218564813145701,"name":"altitude"}],"score_arches":0.0000,"activity_distance":17390,"score_oceans":0.0000,"score_ultraviolet":0.5000,"activity_max_duration":25842,"accomplishment":"0.5","right_longitude":-109.82732968,"score_waterfalls":0.0000,"score_exposure":0.2500,"itinerary":"Partial loop","attributes_url":"/api/object/80/attributes","rating_drawbacks":0.2500,"score_lakes":0.0000,"author_rating":5.0000,"score_leeches":0.0000,"score_falling_objects":0.2500,"drawbacks":[{"score":0.2500,"name":"heavy sand"},{"score":0.2500,"name":"scratchy_plants"},{"score":0.2500,"name":"crowds"},{"score":0.0000,"name":"mud"},{"score":0.0000,"name":"snow"},{"score":0.0000,"name":"dense_brush"},{"score":0.0000,"name":"poisonous_plants"},{"score":0.0000,"name":"spider_webs"},{"score":0.0000,"name":"annoying_insects"},{"score":0.0000,"name":"biting_insects"},{"score":0.0000,"name":"stinging_insects"},{"score":0.0000,"name":"ticks"},{"score":0.0000,"name":"leeches"},{"score":0.0000,"name":"annoying_animals"}],"escape_sense":"0.75","surface":0.5000,"score_amphibians":0.0000,"rating_effort":0.605738018035240619828665633,"id":80,"points_url":"/api/object/80/points","score_dense_brush":0.0000,"media_score_mode":"Manual","completeness":0.40,"end_point":2826,"permission":"Fee","parents_url":"/api/object/80/parents","score_spider_webs":0.0000,"updated":"2013-06-10 16:14:28","beauty":"1","top_latitude":38.14160865,"score_slickrock":0.2500,"score_glaciers":0.0000,"score_scratchy_plants":0.2500,"score_poisonous_plants":0.0000,"score_mud":0.0000,"score_ridges":0.0000,"rating_negatives":0.3333333333333333333333333333,"user_id":1,"start_point":0,"obstacles":[{"score":0.5000,"name":"surface"},{"score":0.2500,"name":"intensity"},{"score":0.2500,"name":"technical"},{"score":0.0000,"name":"navigation"}],"cumulative_elevation":579.00,"origin_longitude":-109.82733907,"score_scrub":0.5000,"score_volcanoes":0.0000,"score_drowning":0.0000,"media":[{"rating":4,"media_id":1370,"sequence":17,"bytes":658375,"object_id":80,"datetime":"2010-10-12 10:25:20","height":1365,"width":2048,"score":31,"caption":"Chesler Park","longitude":-109.845550574444,"key":"o3josx7xkoodiawkyasc","latitude":38.1129522288889,"variants":[{"orientation":1,"url":"//d34ky9neaf8crv.cloudfront.net/pix/o3josx7xkoodiawkyasc.0.jpg","type":"normal","bytes":11657,"height":170,"width":256,"key":"0","quality":75},{"orientation":1,"url":"//d34ky9neaf8crv.cloudfront.net/pix/o3josx7xkoodiawkyasc.1.jpg","type":"normal","bytes":41139,"height":341,"width":512,"key":"1","quality":75},{"orientation":1,"url":"//d34ky9neaf8crv.cloudfront.net/pix/o3josx7xkoodiawkyasc.2.jpg","type":"normal","bytes":150313,"height":682,"width":1024,"key":"2","quality":75},{"orientation":1,"url":"//d34ky9neaf8crv.cloudfront.net/pix/o3josx7xkoodiawkyasc.3.jpg","type":"normal","bytes":455266,"height":1365,"width":2048,"key":"3","quality":75}],"filename":"{DT=2010-10-12 @10-25-20}{SN=001}{BA=IMG}{VO=3034}{CA=Chesler Park}.jpg","id":419788},{"rating":null,"media_id":1387,"sequence":0,"bytes":562383,"object_id":80,"datetime":"2010-10-12 08:55:35","height":2048,"width":1536,"score":30,"caption":"Starting off","longitude":-109.827588405,"key":"0iz23t58fae9ve13wedk","latitude":38.14090126,"variants":[{"orientation":1,"url":"//d34ky9neaf8crv.cloudfront.net/pix/0iz23t58fae9ve13wedk.0.jpg","type":"normal","bytes":10265,"height":256,"width":192,"key":"0","quality":75},{"orientation":1,"url":"//d34ky9neaf8crv.cloudfront.net/pix/0iz23t58fae9ve13wedk.1.jpg","type":"normal","bytes":36009,"height":512,"width":384,"key":"1","quality":75},{"orientation":1,"url":"//d34ky9neaf8crv.cloudfront.net/pix/0iz23t58fae9ve13wedk.2.jpg","type":"normal","bytes":126855,"height":1024,"width":768,"key":"2","quality":75},{"orientation":1,"url":"//d34ky9neaf8crv.cloudfront.net/pix/0iz23t58fae9ve13wedk.3.jpg","type":"normal","bytes":389254,"height":2048,"width":1536,"key":"3","quality":75}],"filename":"{DT=2010-10-12 @08-55-35}{SN=002}{VN=002}{VD=UFRaw}{BA=IMG}{VO=2769}{CA=Starting off}.jpg","id":419789},{"rating":null,"media_id":1357,"sequence":1,"bytes":598005,"object_id":80,"datetime":"2010-10-12 09:07:38","height":1317,"width":2048,"score":29,"caption":"Elephant Hill","longitude":-109.829305786,"key":"96ty4eia09c583nxjz9q","latitude":38.134988758,"variants":[{"orientation":1,"url":"//d34ky9neaf8crv.cloudfront.net/pix/96ty4eia09c583nxjz9q.0.jpg","type":"normal","bytes":11459,"height":164,"width":256,"key":"0","quality":75},{"orientation":1,"url":"//d34ky9neaf8crv.cloudfront.net/pix/96ty4eia09c583nxjz9q.1.jpg","type":"normal","bytes":39238,"height":329,"width":512,"key":"1","quality":75},{"orientation":1,"url":"//d34ky9neaf8crv.cloudfront.net/pix/96ty4eia09c583nxjz9q.2.jpg","type":"normal","bytes":137129,"height":658,"width":1024,"key":"2","quality":75},{"orientation":1,"url":"//d34ky9neaf8crv.cloudfront.net/pix/96ty4eia09c583nxjz9q.3.jpg","type":"normal","bytes":410179,"height":1317,"width":2048,"key":"3","quality":75}],"filename":"{DT=2010-10-12 @09-07-38}{SN=001}{VN=002}{VD=Crop}{BA=IMG}{VO=2810}{CA=Elephant Hill}.jpg","id":419790},{"rating":null,"media_id":1353,"sequence":2,"bytes":299670,"object_id":80,"datetime":"2010-10-12 09:08:06","height":1152,"width":2048,"score":28,"caption":"Flying saucer","longitude":-109.82933208,"key":"7mvsikym57skvvwu5hn0","latitude":38.134817425,"variants":[{"orientation":1,"url":"//d34ky9neaf8crv.cloudfront.net/pix/7mvsikym57skvvwu5hn0.0.jpg","type":"normal","bytes":6467,"height":144,"width":256,"key":"0","quality":75},{"orientation":1,"url":"//d34ky9neaf8crv.cloudfront.net/pix/7mvsikym57skvvwu5hn0.1.jpg","type":"normal","bytes":20709,"height":288,"width":512,"key":"1","quality":75},{"orientation":1,"url":"//d34ky9neaf8crv.cloudfront.net/pix/7mvsikym57skvvwu5hn0.2.jpg","type":"normal","bytes":68450,"height":576,"width":1024,"key":"2","quality":75},{"orientation":1,"url":"//d34ky9neaf8crv.cloudfront.net/pix/7mvsikym57skvvwu5hn0.3.jpg","type":"normal","bytes":204044,"height":1152,"width":2048,"key":"3","quality":75}],"filename":"{DT=2010-10-12 @09-08-06}{SN=001}{VN=003}{VD=Crop;Shadow highlight}{BA=IMG}{VO=2814}{CA=Flying saucer}.jpg","id":419791},{"rating":null,"media_id":1354,"sequence":3,"bytes":476247,"object_id":80,"datetime":"2010-10-12 09:12:35","height":2048,"width":1365,"score":27,"caption":"Plateau path","longitude":-109.829255483333,"key":"up6c0aoi2chwy8nq0a1e","latitude":38.1321481366667,"variants":[{"orientation":1,"url":"//d34ky9neaf8crv.cloudfront.net/pix/up6c0aoi2chwy8nq0a1e.0.jpg","type":"normal","bytes":11820,"height":256,"width":170,"key":"0","quality":75},{"orientation":1,"url":"//d34ky9neaf8crv.cloudfront.net/pix/up6c0aoi2chwy8nq0a1e.1.jpg","type":"normal","bytes":37961,"height":512,"width":341,"key":"1","quality":75},{"orientation":1,"url":"//d34ky9neaf8crv.cloudfront.net/pix/up6c0aoi2chwy8nq0a1e.2.jpg","type":"normal","bytes":116003,"height":1024,"width":682,"key":"2","quality":75},{"orientation":1,"url":"//d34ky9neaf8crv.cloudfront.net/pix/up6c0aoi2chwy8nq0a1e.3.jpg","type":"normal","bytes":310463,"height":2048,"width":1365,"key":"3","quality":75}],"filename":"{DT=2010-10-12 @09-12-35}{SN=001}{BA=IMG}{VO=2827}{CA=Plateau path}.jpg","id":419792},{"rating":null,"media_id":1356,"sequence":4,"bytes":676829,"object_id":80,"datetime":"2010-10-12 09:14:20","height":1365,"width":2048,"score":26,"caption":"Round route","longitude":-109.82961141,"key":"cocqnsgfkcdaywrb7lat","latitude":38.13126454,"variants":[{"orientation":1,"url":"//d34ky9neaf8crv.cloudfront.net/pix/cocqnsgfkcdaywrb7lat.0.jpg","type":"normal","bytes":11778,"height":170,"width":256,"key":"0","quality":75},{"orientation":1,"url":"//d34ky9neaf8crv.cloudfront.net/pix/cocqnsgfkcdaywrb7lat.1.jpg","type":"normal","bytes":41258,"height":341,"width":512,"key":"1","quality":75},{"orientation":1,"url":"//d34ky9neaf8crv.cloudfront.net/pix/cocqnsgfkcdaywrb7lat.2.jpg","type":"normal","bytes":151448,"height":682,"width":1024,"key":"2","quality":75},{"orientation":1,"url":"//d34ky9neaf8crv.cloudfront.net/pix/cocqnsgfkcdaywrb7lat.3.jpg","type":"normal","bytes":472345,"height":1365,"width":2048,"key":"3","quality":75}],"filename":"{DT=2010-10-12 @09-14-20}{SN=001}{BA=IMG}{VO=2839}{CA=Round route}.jpg","id":419793},{"rating":null,"media_id":1389,"sequence":5,"bytes":495012,"object_id":80,"datetime":"2010-10-12 09:18:56","height":2048,"width":1536,"score":25,"caption":"Needles neighborhood","longitude":-109.829688126667,"key":"f7gopmkyf7v4o2fzu8bu","latitude":38.12885413,"variants":[{"orientation":1,"url":"//d34ky9neaf8crv.cloudfront.net/pix/f7gopmkyf7v4o2fzu8bu.0.jpg","type":"normal","bytes":9962,"height":256,"width":192,"key":"0","quality":75},{"orientation":1,"url":"//d34ky9neaf8crv.cloudfront.net/pix/f7gopmkyf7v4o2fzu8bu.1.jpg","type":"normal","bytes":34058,"height":512,"width":384,"key":"1","quality":75},{"orientation":1,"url":"//d34ky9neaf8crv.cloudfront.net/pix/f7gopmkyf7v4o2fzu8bu.2.jpg","type":"normal","bytes":115500,"height":1024,"width":768,"key":"2","quality":75},{"orientation":1,"url":"//d34ky9neaf8crv.cloudfront.net/pix/f7gopmkyf7v4o2fzu8bu.3.jpg","type":"normal","bytes":335492,"height":2048,"width":1536,"key":"3","quality":75}],"filename":"{DT=2010-10-12 @09-18-56}{SN=001}{VN=002}{VD=Crop;Shadow Highlight}{BA=IMG}{VO=2854}{CA=Needles neighborhood}.jpg","id":419794},{"rating":null,"media_id":1386,"sequence":6,"bytes":595737,"object_id":80,"datetime":"2010-10-12 09:19:21","height":1365,"width":2048,"score":24,"caption":"Getting closer","longitude":-109.82998306,"key":"zjuo7qtos25wjchrxw9y","latitude":38.12866381,"variants":[{"orientation":1,"url":"//d34ky9neaf8crv.cloudfront.net/pix/zjuo7qtos25wjchrxw9y.0.jpg","type":"normal","bytes":11455,"height":170,"width":256,"key":"0","quality":75},{"orientation":1,"url":"//d34ky9neaf8crv.cloudfront.net/pix/zjuo7qtos25wjchrxw9y.1.jpg","type":"normal","bytes":39089,"height":341,"width":512,"key":"1","quality":75},{"orientation":1,"url":"//d34ky9neaf8crv.cloudfront.net/pix/zjuo7qtos25wjchrxw9y.2.jpg","type":"normal","bytes":136613,"height":682,"width":1024,"key":"2","quality":75},{"orientation":1,"url":"//d34ky9neaf8crv.cloudfront.net/pix/zjuo7qtos25wjchrxw9y.3.jpg","type":"normal","bytes":408580,"height":1365,"width":2048,"key":"3","quality":75}],"filename":"{DT=2010-10-12 @09-19-21}{SN=001}{BA=IMG}{VO=2857}{CA=Getting closer}.jpg","id":419795},{"rating":null,"media_id":1362,"sequence":7,"bytes":731018,"object_id":80,"datetime":"2010-10-12 09:25:58","height":2048,"width":1365,"score":23,"caption":"Up and over","longitude":-109.832817632857,"key":"123c23ahc2occxfqd97h","latitude":38.1251487585714,"variants":[{"orientation":1,"url":"//d34ky9neaf8crv.cloudfront.net/pix/123c23ahc2occxfqd97h.0.jpg","type":"normal","bytes":13145,"height":256,"width":170,"key":"0","quality":75},{"orientation":1,"url":"//d34ky9neaf8crv.cloudfront.net/pix/123c23ahc2occxfqd97h.1.jpg","type":"normal","bytes":46000,"height":512,"width":341,"key":"1","quality":75},{"orientation":1,"url":"//d34ky9neaf8crv.cloudfront.net/pix/123c23ahc2occxfqd97h.2.jpg","type":"normal","bytes":166287,"height":1024,"width":682,"key":"2","quality":75},{"orientation":1,"url":"//d34ky9neaf8crv.cloudfront.net/pix/123c23ahc2occxfqd97h.3.jpg","type":"normal","bytes":505586,"height":2048,"width":1365,"key":"3","quality":75}],"filename":"{DT=2010-10-12 @09-25-58}{SN=001}{BA=IMG}{VO=2885}{CA=Up and over}.jpg","id":419796},{"rating":null,"media_id":1388,"sequence":8,"bytes":368491,"object_id":80,"datetime":"2010-10-12 09:39:32","height":2048,"width":1365,"score":22,"caption":"Down and through","longitude":-109.83809414,"key":"584ndljwls3a908wu2fh","latitude":38.12431368,"variants":[{"orientation":1,"url":"//d34ky9neaf8crv.cloudfront.net/pix/584ndljwls3a908wu2fh.0.jpg","type":"normal","bytes":7877,"height":256,"width":170,"key":"0","quality":75},{"orientation":1,"url":"//d34ky9neaf8crv.cloudfront.net/pix/584ndljwls3a908wu2fh.1.jpg","type":"normal","bytes":25196,"height":512,"width":341,"key":"1","quality":75},{"orientation":1,"url":"//d34ky9neaf8crv.cloudfront.net/pix/584ndljwls3a908wu2fh.2.jpg","type":"normal","bytes":83826,"height":1024,"width":682,"key":"2","quality":75},{"orientation":1,"url":"//d34ky9neaf8crv.cloudfront.net/pix/584ndljwls3a908wu2fh.3.jpg","type":"normal","bytes":251592,"height":2048,"width":1365,"key":"3","quality":75}],"filename":"{DT=2010-10-12 @09-39-32}{SN=003}{VN=002}{VD=Shadow Highlight;Saturation}{BA=IMG}{VO=2921}{CA=Down and through}.jpg","id":419797},{"rating":null,"media_id":1361,"sequence":9,"bytes":502900,"object_id":80,"datetime":"2010-10-12 09:44:50","height":1365,"width":2048,"score":21,"caption":"Elephant Canyon","longitude":-109.83944208,"key":"7yaeb0y04okm1yyyv6ps","latitude":38.123772925,"variants":[{"orientation":1,"url":"//d34ky9neaf8crv.cloudfront.net/pix/7yaeb0y04okm1yyyv6ps.0.jpg","type":"normal","bytes":10123,"height":170,"width":256,"key":"0","quality":75},{"orientation":1,"url":"//d34ky9neaf8crv.cloudfront.net/pix/7yaeb0y04okm1yyyv6ps.1.jpg","type":"normal","bytes":33722,"height":341,"width":512,"key":"1","quality":75},{"orientation":1,"url":"//d34ky9neaf8crv.cloudfront.net/pix/7yaeb0y04okm1yyyv6ps.2.jpg","type":"normal","bytes":115511,"height":682,"width":1024,"key":"2","quality":75},{"orientation":1,"url":"//d34ky9neaf8crv.cloudfront.net/pix/7yaeb0y04okm1yyyv6ps.3.jpg","type":"normal","bytes":343544,"height":1365,"width":2048,"key":"3","quality":75}],"filename":"{DT=2010-10-12 @09-44-50}{SN=001}{BA=IMG}{VO=2952}{CA=Elephant Canyon}.jpg","id":419798},{"rating":null,"media_id":1365,"sequence":10,"bytes":557515,"object_id":80,"datetime":"2010-10-12 09:45:27","height":2048,"width":1365,"score":20,"caption":"Dropping down","longitude":-109.839168434,"key":"ovz31uf47q3aakjaf9qg","latitude":38.123834554,"variants":[{"orientation":1,"url":"//d34ky9neaf8crv.cloudfront.net/pix/ovz31uf47q3aakjaf9qg.0.jpg","type":"normal","bytes":10203,"height":256,"width":170,"key":"0","quality":75},{"orientation":1,"url":"//d34ky9neaf8crv.cloudfront.net/pix/ovz31uf47q3aakjaf9qg.1.jpg","type":"normal","bytes":35715,"height":512,"width":341,"key":"1","quality":75},{"orientation":1,"url":"//d34ky9neaf8crv.cloudfront.net/pix/ovz31uf47q3aakjaf9qg.2.jpg","type":"normal","bytes":126772,"height":1024,"width":682,"key":"2","quality":75},{"orientation":1,"url":"//d34ky9neaf8crv.cloudfront.net/pix/ovz31uf47q3aakjaf9qg.3.jpg","type":"normal","bytes":384825,"height":2048,"width":1365,"key":"3","quality":75}],"filename":"{DT=2010-10-12 @09-45-27}{SN=003}{BA=IMG}{VO=2957}{CA=Dropping down}.jpg","id":419799},{"rating":null,"media_id":1363,"sequence":11,"bytes":554785,"object_id":80,"datetime":"2010-10-12 09:46:32","height":1365,"width":2048,"score":19,"caption":"Canyon crossing","longitude":-109.839768805,"key":"w65epd4zbz9kqqu8kdif","latitude":38.12382548,"variants":[{"orientation":1,"url":"//d34ky9neaf8crv.cloudfront.net/pix/w65epd4zbz9kqqu8kdif.0.jpg","type":"normal","bytes":10317,"height":170,"width":256,"key":"0","quality":75},{"orientation":1,"url":"//d34ky9neaf8crv.cloudfront.net/pix/w65epd4zbz9kqqu8kdif.1.jpg","type":"normal","bytes":36134,"height":341,"width":512,"key":"1","quality":75},{"orientation":1,"url":"//d34ky9neaf8crv.cloudfront.net/pix/w65epd4zbz9kqqu8kdif.2.jpg","type":"normal","bytes":126954,"height":682,"width":1024,"key":"2","quality":75},{"orientation":1,"url":"//d34ky9neaf8crv.cloudfront.net/pix/w65epd4zbz9kqqu8kdif.3.jpg","type":"normal","bytes":381380,"height":1365,"width":2048,"key":"3","quality":75}],"filename":"{DT=2010-10-12 @09-46-32}{SN=001}{BA=IMG}{VO=2965}{CA=Canyon crossing}.jpg","id":419800},{"rating":null,"media_id":1364,"sequence":12,"bytes":440275,"object_id":80,"datetime":"2010-10-12 09:52:46","height":2048,"width":1365,"score":18,"caption":"Lizard cairn","longitude":-109.842277997143,"key":"oo0illls9qblrc99vslo","latitude":38.1226577114286,"variants":[{"orientation":1,"url":"//d34ky9neaf8crv.cloudfront.net/pix/oo0illls9qblrc99vslo.0.jpg","type":"normal","bytes":11186,"height":256,"width":170,"key":"0","quality":75},{"orientation":1,"url":"//d34ky9neaf8crv.cloudfront.net/pix/oo0illls9qblrc99vslo.1.jpg","type":"normal","bytes":34291,"height":512,"width":341,"key":"1","quality":75},{"orientation":1,"url":"//d34ky9neaf8crv.cloudfront.net/pix/oo0illls9qblrc99vslo.2.jpg","type":"normal","bytes":103666,"height":1024,"width":682,"key":"2","quality":75},{"orientation":1,"url":"//d34ky9neaf8crv.cloudfront.net/pix/oo0illls9qblrc99vslo.3.jpg","type":"normal","bytes":291132,"height":2048,"width":1365,"key":"3","quality":75}],"filename":"{DT=2010-10-12 @09-52-46}{SN=001}{BA=IMG}{VO=2978}{CA=Lizard cairn}.jpg","id":419801},{"rating":null,"media_id":1367,"sequence":13,"bytes":601188,"object_id":80,"datetime":"2010-10-12 10:00:54","height":1365,"width":2048,"score":17,"caption":"Second climb","longitude":-109.84567214,"key":"d3tlzi42htqro66cdgmr","latitude":38.12193985,"variants":[{"orientation":1,"url":"//d34ky9neaf8crv.cloudfront.net/pix/d3tlzi42htqro66cdgmr.0.jpg","type":"normal","bytes":10775,"height":170,"width":256,"key":"0","quality":75},{"orientation":1,"url":"//d34ky9neaf8crv.cloudfront.net/pix/d3tlzi42htqro66cdgmr.1.jpg","type":"normal","bytes":37295,"height":341,"width":512,"key":"1","quality":75},{"orientation":1,"url":"//d34ky9neaf8crv.cloudfront.net/pix/d3tlzi42htqro66cdgmr.2.jpg","type":"normal","bytes":135622,"height":682,"width":1024,"key":"2","quality":75},{"orientation":1,"url":"//d34ky9neaf8crv.cloudfront.net/pix/d3tlzi42htqro66cdgmr.3.jpg","type":"normal","bytes":417496,"height":1365,"width":2048,"key":"3","quality":75}],"filename":"{DT=2010-10-12 @10-00-54}{SN=001}{BA=IMG}{VO=2982}{CA=Second climb}.jpg","id":419802},{"rating":null,"media_id":1366,"sequence":14,"bytes":340503,"object_id":80,"datetime":"2010-10-12 10:06:18","height":2048,"width":1365,"score":16,"caption":"Stone cones","longitude":-109.84834035,"key":"2r9e8o4rhcd3amnzc06l","latitude":38.12029974,"variants":[{"orientation":1,"url":"//d34ky9neaf8crv.cloudfront.net/pix/2r9e8o4rhcd3amnzc06l.0.jpg","type":"normal","bytes":7259,"height":256,"width":170,"key":"0","quality":75},{"orientation":1,"url":"//d34ky9neaf8crv.cloudfront.net/pix/2r9e8o4rhcd3amnzc06l.1.jpg","type":"normal","bytes":23566,"height":512,"width":341,"key":"1","quality":75},{"orientation":1,"url":"//d34ky9neaf8crv.cloudfront.net/pix/2r9e8o4rhcd3amnzc06l.2.jpg","type":"normal","bytes":78033,"height":1024,"width":682,"key":"2","quality":75},{"orientation":1,"url":"//d34ky9neaf8crv.cloudfront.net/pix/2r9e8o4rhcd3amnzc06l.3.jpg","type":"normal","bytes":231645,"height":2048,"width":1365,"key":"3","quality":75}],"filename":"{DT=2010-10-12 @10-06-18}{SN=001}{BA=IMG}{VO=3008}{CA=Stone cones}.jpg","id":419803},{"rating":null,"media_id":1368,"sequence":15,"bytes":356053,"object_id":80,"datetime":"2010-10-12 10:09:03","height":2048,"width":1365,"score":15,"caption":"Crossing over","longitude":-109.8490974,"key":"9d9wgfa44t8amvl7q81g","latitude":38.11963985,"variants":[{"orientation":1,"url":"//d34ky9neaf8crv.cloudfront.net/pix/9d9wgfa44t8amvl7q81g.0.jpg","type":"normal","bytes":7249,"height":256,"width":170,"key":"0","quality":75},{"orientation":1,"url":"//d34ky9neaf8crv.cloudfront.net/pix/9d9wgfa44t8amvl7q81g.1.jpg","type":"normal","bytes":23291,"height":512,"width":341,"key":"1","quality":75},{"orientation":1,"url":"//d34ky9neaf8crv.cloudfront.net/pix/9d9wgfa44t8amvl7q81g.2.jpg","type":"normal","bytes":79169,"height":1024,"width":682,"key":"2","quality":75},{"orientation":1,"url":"//d34ky9neaf8crv.cloudfront.net/pix/9d9wgfa44t8amvl7q81g.3.jpg","type":"normal","bytes":246344,"height":2048,"width":1365,"key":"3","quality":75}],"filename":"{DT=2010-10-12 @10-09-03}{SN=004}{VN=002}{VD=UFRaw}{BA=IMG}{VO=3014}{CA=Crossing over}.jpg","id":419804},{"rating":null,"media_id":1369,"sequence":16,"bytes":247365,"object_id":80,"datetime":"2010-10-12 10:24:19","height":2048,"width":1365,"score":14,"caption":"Peekaboo view","longitude":-109.844937606667,"key":"iosjb0x67kc7qe5qs0jh","latitude":38.1134821133333,"variants":[{"orientation":1,"url":"//d34ky9neaf8crv.cloudfront.net/pix/iosjb0x67kc7qe5qs0jh.0.jpg","type":"normal","bytes":5960,"height":256,"width":170,"key":"0","quality":75},{"orientation":1,"url":"//d34ky9neaf8crv.cloudfront.net/pix/iosjb0x67kc7qe5qs0jh.1.jpg","type":"normal","bytes":17653,"height":512,"width":341,"key":"1","quality":75},{"orientation":1,"url":"//d34ky9neaf8crv.cloudfront.net/pix/iosjb0x67kc7qe5qs0jh.2.jpg","type":"normal","bytes":56257,"height":1024,"width":682,"key":"2","quality":75},{"orientation":1,"url":"//d34ky9neaf8crv.cloudfront.net/pix/iosjb0x67kc7qe5qs0jh.3.jpg","type":"normal","bytes":167495,"height":2048,"width":1365,"key":"3","quality":75}],"filename":"{DT=2010-10-12 @10-24-19}{SN=001}{BA=IMG}{VO=3032}{CA=Peekaboo view}.jpg","id":419805},{"rating":null,"media_id":1371,"sequence":18,"bytes":674317,"object_id":80,"datetime":"2010-10-12 10:28:27","height":1365,"width":2048,"score":13,"caption":"Meadow march","longitude":-109.84663249,"key":"5loatnpjijvtrk5k311h","latitude":38.110899286,"variants":[{"orientation":1,"url":"//d34ky9neaf8crv.cloudfront.net/pix/5loatnpjijvtrk5k311h.0.jpg","type":"normal","bytes":10957,"height":170,"width":256,"key":"0","quality":75},{"orientation":1,"url":"//d34ky9neaf8crv.cloudfront.net/pix/5loatnpjijvtrk5k311h.1.jpg","type":"normal","bytes":39559,"height":341,"width":512,"key":"1","quality":75},{"orientation":1,"url":"//d34ky9neaf8crv.cloudfront.net/pix/5loatnpjijvtrk5k311h.2.jpg","type":"normal","bytes":149956,"height":682,"width":1024,"key":"2","quality":75},{"orientation":1,"url":"//d34ky9neaf8crv.cloudfront.net/pix/5loatnpjijvtrk5k311h.3.jpg","type":"normal","bytes":473845,"height":1365,"width":2048,"key":"3","quality":75}],"filename":"{DT=2010-10-12 @10-28-27}{SN=003}{BA=IMG}{VO=3050}{CA=Meadow march}.jpg","id":419806},{"rating":null,"media_id":1374,"sequence":19,"bytes":736546,"object_id":80,"datetime":"2010-10-12 10:28:58","height":1365,"width":2048,"score":12,"caption":"Sand stripes","longitude":-109.846785338,"key":"ohl6rnchnudxds4xvb0b","latitude":38.110509042,"variants":[{"orientation":1,"url":"//d34ky9neaf8crv.cloudfront.net/pix/ohl6rnchnudxds4xvb0b.0.jpg","type":"normal","bytes":11585,"height":170,"width":256,"key":"0","quality":75},{"orientation":1,"url":"//d34ky9neaf8crv.cloudfront.net/pix/ohl6rnchnudxds4xvb0b.1.jpg","type":"normal","bytes":42225,"height":341,"width":512,"key":"1","quality":75},{"orientation":1,"url":"//d34ky9neaf8crv.cloudfront.net/pix/ohl6rnchnudxds4xvb0b.2.jpg","type":"normal","bytes":161879,"height":682,"width":1024,"key":"2","quality":75},{"orientation":1,"url":"//d34ky9neaf8crv.cloudfront.net/pix/ohl6rnchnudxds4xvb0b.3.jpg","type":"normal","bytes":520857,"height":1365,"width":2048,"key":"3","quality":75}],"filename":"{DT=2010-10-12 @10-28-58}{SN=003}{BA=IMG}{VO=3054}{CA=Sand stripes}.jpg","id":419807},{"rating":null,"media_id":1377,"sequence":20,"bytes":587812,"object_id":80,"datetime":"2010-10-12 10:32:18","height":2048,"width":1365,"score":11,"caption":"Tall towers","longitude":-109.84750887,"key":"445rkst1s3l5nfk4j45k","latitude":38.10890716,"variants":[{"orientation":1,"url":"//d34ky9neaf8crv.cloudfront.net/pix/445rkst1s3l5nfk4j45k.0.jpg","type":"normal","bytes":9853,"height":256,"width":170,"key":"0","quality":75},{"orientation":1,"url":"//d34ky9neaf8crv.cloudfront.net/pix/445rkst1s3l5nfk4j45k.1.jpg","type":"normal","bytes":35273,"height":512,"width":341,"key":"1","quality":75},{"orientation":1,"url":"//d34ky9neaf8crv.cloudfront.net/pix/445rkst1s3l5nfk4j45k.2.jpg","type":"normal","bytes":132480,"height":1024,"width":682,"key":"2","quality":75},{"orientation":1,"url":"//d34ky9neaf8crv.cloudfront.net/pix/445rkst1s3l5nfk4j45k.3.jpg","type":"normal","bytes":410206,"height":2048,"width":1365,"key":"3","quality":75}],"filename":"{DT=2010-10-12 @10-32-18}{SN=005}{BA=IMG}{VO=3078}{CA=Tall towers}.jpg","id":419808},{"rating":null,"media_id":1372,"sequence":21,"bytes":395668,"object_id":80,"datetime":"2010-10-12 10:36:00","height":1365,"width":2048,"score":10,"caption":"Looming above","longitude":-109.849201876,"key":"itgpolfmnur2wuf6jhr2","latitude":38.10709266,"variants":[{"orientation":1,"url":"//d34ky9neaf8crv.cloudfront.net/pix/itgpolfmnur2wuf6jhr2.0.jpg","type":"normal","bytes":8271,"height":170,"width":256,"key":"0","quality":75},{"orientation":1,"url":"//d34ky9neaf8crv.cloudfront.net/pix/itgpolfmnur2wuf6jhr2.1.jpg","type":"normal","bytes":26350,"height":341,"width":512,"key":"1","quality":75},{"orientation":1,"url":"//d34ky9neaf8crv.cloudfront.net/pix/itgpolfmnur2wuf6jhr2.2.jpg","type":"normal","bytes":89390,"height":682,"width":1024,"key":"2","quality":75},{"orientation":1,"url":"//d34ky9neaf8crv.cloudfront.net/pix/itgpolfmnur2wuf6jhr2.3.jpg","type":"normal","bytes":271657,"height":1365,"width":2048,"key":"3","quality":75}],"filename":"{DT=2010-10-12 @10-36-00}{SN=003}{BA=IMG}{VO=3085}{CA=Looming above}.jpg","id":419809},{"rating":null,"media_id":1380,"sequence":22,"bytes":636891,"object_id":80,"datetime":"2010-10-12 10:51:52","height":2048,"width":1365,"score":9,"caption":"Into the crack","longitude":-109.857548506667,"key":"0f7jgw5sz58tdrykef33","latitude":38.1046358433333,"variants":[{"orientation":1,"url":"//d34ky9neaf8crv.cloudfront.net/pix/0f7jgw5sz58tdrykef33.0.jpg","type":"normal","bytes":12423,"height":256,"width":170,"key":"0","quality":75},{"orientation":1,"url":"//d34ky9neaf8crv.cloudfront.net/pix/0f7jgw5sz58tdrykef33.1.jpg","type":"normal","bytes":41889,"height":512,"width":341,"key":"1","quality":75},{"orientation":1,"url":"//d34ky9neaf8crv.cloudfront.net/pix/0f7jgw5sz58tdrykef33.2.jpg","type":"normal","bytes":145112,"height":1024,"width":682,"key":"2","quality":75},{"orientation":1,"url":"//d34ky9neaf8crv.cloudfront.net/pix/0f7jgw5sz58tdrykef33.3.jpg","type":"normal","bytes":437467,"height":2048,"width":1365,"key":"3","quality":75}],"filename":"{DT=2010-10-12 @10-51-52}{SN=001}{BA=IMG}{VO=3094}{CA=Into the crack}.jpg","id":419810},{"rating":null,"media_id":1376,"sequence":23,"bytes":523774,"object_id":80,"datetime":"2010-10-12 11:02:39","height":2048,"width":1365,"score":8,"caption":"Stair steps","longitude":-109.857707633143,"key":"gvu8fblnja18cnch2yjf","latitude":38.104664104,"variants":[{"orientation":1,"url":"//d34ky9neaf8crv.cloudfront.net/pix/gvu8fblnja18cnch2yjf.0.jpg","type":"normal","bytes":10412,"height":256,"width":170,"key":"0","quality":75},{"orientation":1,"url":"//d34ky9neaf8crv.cloudfront.net/pix/gvu8fblnja18cnch2yjf.1.jpg","type":"normal","bytes":34523,"height":512,"width":341,"key":"1","quality":75},{"orientation":1,"url":"//d34ky9neaf8crv.cloudfront.net/pix/gvu8fblnja18cnch2yjf.2.jpg","type":"normal","bytes":118535,"height":1024,"width":682,"key":"2","quality":75},{"orientation":1,"url":"//d34ky9neaf8crv.cloudfront.net/pix/gvu8fblnja18cnch2yjf.3.jpg","type":"normal","bytes":360304,"height":2048,"width":1365,"key":"3","quality":75}],"filename":"{DT=2010-10-12 @11-02-39}{SN=001}{BA=IMG}{VO=3103}{CA=Stair steps}.jpg","id":419811},{"rating":null,"media_id":1373,"sequence":24,"bytes":366086,"object_id":80,"datetime":"2010-10-12 11:05:18","height":2048,"width":1365,"score":7,"caption":"Joint Trail","longitude":-109.858084626143,"key":"cbvmd8hkejaqj5i5uhw4","latitude":38.1041244522286,"variants":[{"orientation":1,"url":"//d34ky9neaf8crv.cloudfront.net/pix/cbvmd8hkejaqj5i5uhw4.0.jpg","type":"normal","bytes":8046,"height":256,"width":170,"key":"0","quality":75},{"orientation":1,"url":"//d34ky9neaf8crv.cloudfront.net/pix/cbvmd8hkejaqj5i5uhw4.1.jpg","type":"normal","bytes":26524,"height":512,"width":341,"key":"1","quality":75},{"orientation":1,"url":"//d34ky9neaf8crv.cloudfront.net/pix/cbvmd8hkejaqj5i5uhw4.2.jpg","type":"normal","bytes":85836,"height":1024,"width":682,"key":"2","quality":75},{"orientation":1,"url":"//d34ky9neaf8crv.cloudfront.net/pix/cbvmd8hkejaqj5i5uhw4.3.jpg","type":"normal","bytes":245680,"height":2048,"width":1365,"key":"3","quality":75}],"filename":"{DT=2010-10-12 @11-05-18}{SN=001}{BA=IMG}{VO=3120}{CA=Joint Trail}.jpg","id":419812},{"rating":null,"media_id":1375,"sequence":25,"bytes":348381,"object_id":80,"datetime":"2010-10-12 11:05:36","height":2048,"width":1365,"score":6,"caption":"Narrow navigation","longitude":-109.858302079,"key":"6oe6tlw7qid4yuu1z7p3","latitude":38.103748496,"variants":[{"orientation":1,"url":"//d34ky9neaf8crv.cloudfront.net/pix/6oe6tlw7qid4yuu1z7p3.0.jpg","type":"normal","bytes":9582,"height":256,"width":170,"key":"0","quality":75},{"orientation":1,"url":"//d34ky9neaf8crv.cloudfront.net/pix/6oe6tlw7qid4yuu1z7p3.1.jpg","type":"normal","bytes":29169,"height":512,"width":341,"key":"1","quality":75},{"orientation":1,"url":"//d34ky9neaf8crv.cloudfront.net/pix/6oe6tlw7qid4yuu1z7p3.2.jpg","type":"normal","bytes":84017,"height":1024,"width":682,"key":"2","quality":75},{"orientation":1,"url":"//d34ky9neaf8crv.cloudfront.net/pix/6oe6tlw7qid4yuu1z7p3.3.jpg","type":"normal","bytes":225613,"height":2048,"width":1365,"key":"3","quality":75}],"filename":"{DT=2010-10-12 @11-05-36}{SN=007}{BA=IMG}{VO=3125}{CA=Narrow navigation}.jpg","id":419813},{"rating":null,"media_id":1379,"sequence":26,"bytes":403595,"object_id":80,"datetime":"2010-10-12 11:07:14","height":2048,"width":1365,"score":5,"caption":"Crack track","longitude":-109.85839085825,"key":"gxwnfwkp3zzxcr8rb4hf","latitude":38.1035622480938,"variants":[{"orientation":1,"url":"//d34ky9neaf8crv.cloudfront.net/pix/gxwnfwkp3zzxcr8rb4hf.0.jpg","type":"normal","bytes":8135,"height":256,"width":170,"key":"0","quality":75},{"orientation":1,"url":"//d34ky9neaf8crv.cloudfront.net/pix/gxwnfwkp3zzxcr8rb4hf.1.jpg","type":"normal","bytes":28055,"height":512,"width":341,"key":"1","quality":75},{"orientation":1,"url":"//d34ky9neaf8crv.cloudfront.net/pix/gxwnfwkp3zzxcr8rb4hf.2.jpg","type":"normal","bytes":94457,"height":1024,"width":682,"key":"2","quality":75},{"orientation":1,"url":"//d34ky9neaf8crv.cloudfront.net/pix/gxwnfwkp3zzxcr8rb4hf.3.jpg","type":"normal","bytes":272948,"height":2048,"width":1365,"key":"3","quality":75}],"filename":"{DT=2010-10-12 @11-07-14}{SN=001}{BA=IMG}{VO=3137}{CA=Crack track}.jpg","id":419814},{"rating":null,"media_id":1378,"sequence":27,"bytes":316037,"object_id":80,"datetime":"2010-10-12 11:13:11","height":2048,"width":1365,"score":4,"caption":"Lightning tunnel","longitude":-109.85965604119,"key":"hnao9wx7ijcezyqk1mjm","latitude":38.1018873732381,"variants":[{"orientation":1,"url":"//d34ky9neaf8crv.cloudfront.net/pix/hnao9wx7ijcezyqk1mjm.0.jpg","type":"normal","bytes":7040,"height":256,"width":170,"key":"0","quality":75},{"orientation":1,"url":"//d34ky9neaf8crv.cloudfront.net/pix/hnao9wx7ijcezyqk1mjm.1.jpg","type":"normal","bytes":22795,"height":512,"width":341,"key":"1","quality":75},{"orientation":1,"url":"//d34ky9neaf8crv.cloudfront.net/pix/hnao9wx7ijcezyqk1mjm.2.jpg","type":"normal","bytes":73327,"height":1024,"width":682,"key":"2","quality":75},{"orientation":1,"url":"//d34ky9neaf8crv.cloudfront.net/pix/hnao9wx7ijcezyqk1mjm.3.jpg","type":"normal","bytes":212875,"height":2048,"width":1365,"key":"3","quality":75}],"filename":"{DT=2010-10-12 @11-13-11}{SN=001}{BA=IMG}{VO=3154}{CA=Lightning tunnel}.jpg","id":419815},{"rating":null,"media_id":1381,"sequence":28,"bytes":343260,"object_id":80,"datetime":"2010-10-12 11:16:59","height":2048,"width":1365,"score":3,"caption":"Emerging","longitude":-109.86084242,"key":"n5xlneca5ncc8lj5xje1","latitude":38.10202767,"variants":[{"orientation":1,"url":"//d34ky9neaf8crv.cloudfront.net/pix/n5xlneca5ncc8lj5xje1.0.jpg","type":"normal","bytes":7146,"height":256,"width":170,"key":"0","quality":75},{"orientation":1,"url":"//d34ky9neaf8crv.cloudfront.net/pix/n5xlneca5ncc8lj5xje1.1.jpg","type":"normal","bytes":23626,"height":512,"width":341,"key":"1","quality":75},{"orientation":1,"url":"//d34ky9neaf8crv.cloudfront.net/pix/n5xlneca5ncc8lj5xje1.2.jpg","type":"normal","bytes":78666,"height":1024,"width":682,"key":"2","quality":75},{"orientation":1,"url":"//d34ky9neaf8crv.cloudfront.net/pix/n5xlneca5ncc8lj5xje1.3.jpg","type":"normal","bytes":233822,"height":2048,"width":1365,"key":"3","quality":75}],"filename":"{DT=2010-10-12 @11-16-59}{SN=001}{BA=IMG}{VO=3167}{CA=Emerging}.jpg","id":419816},{"rating":null,"media_id":1385,"sequence":29,"bytes":426371,"object_id":80,"datetime":"2010-10-12 12:23:15","height":1365,"width":2048,"score":2,"caption":"Sand structure","longitude":-109.85980403,"key":"e43bduztcjnkbvhs56hm","latitude":38.1168807,"variants":[{"orientation":1,"url":"//d34ky9neaf8crv.cloudfront.net/pix/e43bduztcjnkbvhs56hm.0.jpg","type":"normal","bytes":11553,"height":170,"width":256,"key":"0","quality":75},{"orientation":1,"url":"//d34ky9neaf8crv.cloudfront.net/pix/e43bduztcjnkbvhs56hm.1.jpg","type":"normal","bytes":34263,"height":341,"width":512,"key":"1","quality":75},{"orientation":1,"url":"//d34ky9neaf8crv.cloudfront.net/pix/e43bduztcjnkbvhs56hm.2.jpg","type":"normal","bytes":99281,"height":682,"width":1024,"key":"2","quality":75},{"orientation":1,"url":"//d34ky9neaf8crv.cloudfront.net/pix/e43bduztcjnkbvhs56hm.3.jpg","type":"normal","bytes":281274,"height":1365,"width":2048,"key":"3","quality":75}],"filename":"{DT=2010-10-12 @12-23-15}{SN=001}{VN=002}{VD=Rotate;Crop}{OW=HMK}{BA=IMG}{VO=4700}{CA=Sand structure}.jpg","id":419817},{"rating":null,"media_id":1382,"sequence":30,"bytes":469648,"object_id":80,"datetime":"2010-10-12 12:23:57","height":1365,"width":2048,"score":1,"caption":"Cryptobiotic crust","longitude":-109.85942139,"key":"c4yl00xargw37l61cr3g","latitude":38.11712972,"variants":[{"orientation":1,"url":"//d34ky9neaf8crv.cloudfront.net/pix/c4yl00xargw37l61cr3g.0.jpg","type":"normal","bytes":13074,"height":170,"width":256,"key":"0","quality":75},{"orientation":1,"url":"//d34ky9neaf8crv.cloudfront.net/pix/c4yl00xargw37l61cr3g.1.jpg","type":"normal","bytes":37721,"height":341,"width":512,"key":"1","quality":75},{"orientation":1,"url":"//d34ky9neaf8crv.cloudfront.net/pix/c4yl00xargw37l61cr3g.2.jpg","type":"normal","bytes":109760,"height":682,"width":1024,"key":"2","quality":75},{"orientation":1,"url":"//d34ky9neaf8crv.cloudfront.net/pix/c4yl00xargw37l61cr3g.3.jpg","type":"normal","bytes":309093,"height":1365,"width":2048,"key":"3","quality":75}],"filename":"{DT=2010-10-12 @12-23-57}{SN=001}{VN=002}{VD=Crop;Sharpen}{OW=HMK}{BA=IMG}{VO=4704}{CA=Cryptobiotic crust}.jpg","id":419818},{"rating":null,"media_id":1383,"sequence":31,"bytes":624618,"object_id":80,"datetime":"2010-10-12 12:34:24","height":1437,"width":2048,"score":0,"caption":"Needles return","longitude":-109.852925164286,"key":"ova2fg63k6q1mdn16yj8","latitude":38.11752938,"variants":[{"orientation":1,"url":"//d34ky9neaf8crv.cloudfront.net/pix/ova2fg63k6q1mdn16yj8.0.jpg","type":"normal","bytes":10901,"height":179,"width":256,"key":"0","quality":75},{"orientation":1,"url":"//d34ky9neaf8crv.cloudfront.net/pix/ova2fg63k6q1mdn16yj8.1.jpg","type":"normal","bytes":36556,"height":359,"width":512,"key":"1","quality":75},{"orientation":1,"url":"//d34ky9neaf8crv.cloudfront.net/pix/ova2fg63k6q1mdn16yj8.2.jpg","type":"normal","bytes":137212,"height":718,"width":1024,"key":"2","quality":75},{"orientation":1,"url":"//d34ky9neaf8crv.cloudfront.net/pix/ova2fg63k6q1mdn16yj8.3.jpg","type":"normal","bytes":439949,"height":1437,"width":2048,"key":"3","quality":75}],"filename":"{DT=2010-10-12 @12-34-24}{SN=001}{VN=002}{VD=Rotate;Crop}{OW=HMK}{BA=IMG}{VO=4707}{CA=Needles return}.jpg","id":419819}],"latest":"October"}